City_ID,City,Country,Max Temp,Current Description,Lat,Lng,Hotel Name
0,Tezu,IN,75.7,overcast clouds,27.9167,96.1667,Circuit House
2,Cidreira,BR,60.44,scattered clouds,-30.1811,-50.2056,Hotel Castelo
4,Rikitea,PF,72.14,light rain,-23.1203,-134.9692,People ThankYou
5,Goderich,CA,70.92,clear sky,43.7501,-81.7165,Harmony Inn
6,Cap Malheureux,MU,66.47,clear sky,-19.9842,57.6142,Pereybere Hotel & Spa
10,Norman Wells,CA,75.24,broken clouds,65.282,-126.8329,Heritage Hotel
11,Korla,CN,73.9,clear sky,41.7597,86.1469,Gulisitan Hotel
12,Dicabisagan,PH,76.78,moderate rain,17.0818,122.4157,Nancy Montanes Bernardo
13,Faanui,PF,78.48,scattered clouds,-16.4833,-151.75,Bora-Bora Pearl Beach Resort & Spa
15,The Valley,AI,87.66,few clouds,18.217,-63.0578,CeBlue Villas & Beach Resort
19,Kamenicky Senov,CZ,66.18,overcast clouds,50.7736,14.4729,Vila Heide
21,Ribeira Grande,PT,75.58,few clouds,38.5167,-28.7,Quinta da Meia Eira
23,Hilo,US,82.27,broken clouds,19.7297,-155.09,Hilo Hawaiian Hotel
25,Pak Chong,TH,78.82,overcast clouds,14.708,101.4161,PakChong Phubade Hotel
27,Souillac,MU,68.38,scattered clouds,-20.5167,57.5167,Shanti Maurice Resort & Spa
30,Culebra,PR,87.89,clear sky,18.303,-65.301,Palmetto Guesthouse
31,Albany,US,88.57,few clouds,42.6001,-73.9662,
34,Oussouye,SN,82.49,overcast clouds,12.485,-16.5469,Auberge du Routard
35,Newtownards,GB,66.15,overcast clouds,54.5924,-5.6909,Strangford Arms Hotel
39,Monrovia,LR,76.77,light rain,6.3005,-10.7969,Sunset Inn
40,Castro,BR,64.9,clear sky,-24.7911,-50.0119,CHACARA BAILLY
41,Yellowknife,CA,68.52,few clouds,62.456,-114.3525,The Explorer Hotel
42,Nouakchott,MR,80.53,scattered clouds,18.0858,-15.9785,HOTEL IMAN
43,Westerland,DE,66.22,broken clouds,54.9079,8.3033,Dorint Strandresort & Spa Westerland / Sylt
44,Torbay,CA,77.77,few clouds,47.6666,-52.7314,Gallows Cove
45,Lazaro Cardenas,MX,88.43,broken clouds,17.9583,-102.2,HOTEL QUINTA ANTIGUA
46,Vyatskiye Polyany,RU,64.27,overcast clouds,56.226,51.0656,Bereg
47,Butaritari,KI,81.82,overcast clouds,3.0707,172.7902,Isles Sunset Lodge
48,Kahului,US,87.82,scattered clouds,20.8947,-156.47,Maui Seaside Hotel
50,Bambous Virieux,MU,68.25,scattered clouds,-20.3428,57.7575,Casa Tia Villa
51,Pingliang,CN,67.66,clear sky,35.5392,106.6861,North Gate Hostel
52,Fortuna,US,72.09,clear sky,40.5982,-124.1573,Super 8 by Wyndham Fortuna
53,Makakilo City,US,82.15,broken clouds,21.3469,-158.0858,Marriott's Ko Olina Beach Club
54,Puerto Ayora,EC,82.36,broken clouds,-0.7393,-90.3518,Finch Bay Galapagos Hotel
55,Arraial Do Cabo,BR,71.56,scattered clouds,-22.9661,-42.0278,Pousada Porto Praia
58,Conceicao Das Alagoas,BR,83.98,few clouds,-19.9147,-48.3883,Bouganville Hotel
59,Saint-Philippe,RE,65.79,scattered clouds,-21.3585,55.7679,Le four à pain
61,Waingapu,ID,71.71,few clouds,-9.6567,120.2641,Pondok Wisata Elim
63,Bonfim,BR,82.35,moderate rain,3.0833,-59.95,
64,Rio Cuarto,AR,67.77,clear sky,-33.1307,-64.3499,Hotel Menossi
65,Georgetown,MY,78.89,light rain,5.4112,100.3354,Cititel Penang
66,Mozarlandia,BR,87.3,clear sky,-14.7447,-50.5706,Hotel Santa Mônica
67,Mahebourg,MU,68.29,scattered clouds,-20.4081,57.7,Shandrani Beachcomber Resort & Spa
69,Buritizeiro,BR,80.26,scattered clouds,-17.3511,-44.9622,Santos Palace Hotel
70,Vaini,TO,78.96,scattered clouds,-21.2,-175.2,Keleti Beach Resort
71,Anadyr,RU,63.1,clear sky,64.75,177.4833,Отке17.ру — жильё для командированных
72,Kapaa,US,84.52,broken clouds,22.0752,-159.319,Sheraton Kauai Coconut Beach Resort
73,Atikokan,CA,79.57,light rain,48.7555,-91.6216,Quetico Inn (formerly Radisson)
78,Margate,GB,66.87,few clouds,51.3813,1.3862,Premier Inn Margate hotel
79,Sioux Lookout,CA,78.87,scattered clouds,50.1001,-91.917,Knobby's Fly-In Camps
85,Ponta Do Sol,PT,72.23,clear sky,32.6667,-17.1,Hotel do Campo
86,Craig,US,87.75,few clouds,40.5153,-107.5464,"Candlewood Suites Craig-Northwest, an IHG Hotel"
90,Kavaratti,IN,78.03,light rain,10.5669,72.642,Green leaf
92,Kirakira,SB,81.0,overcast clouds,-10.4544,161.9205,SanBiz Lodge
95,Saint-Michel-Des-Saints,CA,65.93,clear sky,46.6834,-73.9159,Motel Du Mont trinity
98,Kavieng,PG,81.66,scattered clouds,-2.5744,150.7967,Nusa Island Retreat
100,Ozinki,RU,69.26,clear sky,51.1786,49.6769,Korolevskiy Dvor
101,Sao Joao Da Barra,BR,75.29,scattered clouds,-21.6403,-41.0511,Pousada Porto De Canoas
103,Muros,ES,71.69,clear sky,42.7762,-9.0603,Apartment Av. Castelao
105,Wote,KE,63.05,broken clouds,-1.7808,37.6288,SAVANAH HOTEL
106,Ilhabela,BR,67.64,clear sky,-23.7781,-45.3581,Ilha Flat Hotel
109,Leshukonskoye,RU,60.24,overcast clouds,64.8989,45.7622,Pryalitsa Hostel
111,Gat,IL,83.39,clear sky,31.61,34.7642,OlusHome
114,Shubarkuduk,KZ,71.47,clear sky,49.1447,56.4872,Sirius
115,Amapa,BR,77.22,moderate rain,1.0,-52.0,
116,Port Hardy,CA,64.58,broken clouds,50.6996,-127.4199,Airport Inn-Port Hardy
117,Port Alfred,ZA,65.88,broken clouds,-33.5906,26.891,The Halyards Hotel
120,Canchungo,GW,77.13,broken clouds,12.0672,-16.0333,Aparthotel Napalach
121,Libertador General San Martin,AR,79.97,clear sky,-23.8064,-64.7876,Posada del Sol
122,Charters Towers,AU,60.98,scattered clouds,-20.1,146.2667,Cattleman's Rest Motor Inn
123,Jamestown,US,77.05,broken clouds,42.097,-79.2353,Hampton Inn & Suites Jamestown
126,Nome,US,69.12,clear sky,64.5011,-165.4064,Dredge 7 Inn
127,Naze,JP,79.72,broken clouds,28.3667,129.4833,Shishime Hotel
128,Atuona,PF,77.11,clear sky,-9.8,-139.0333,Villa Enata
130,Xining,CN,63.36,broken clouds,36.6167,101.7667,Super Leisure Hotel
131,Yamada,JP,71.53,moderate rain,39.4667,141.95,Iroha-ya Inn
132,Pasighat,IN,77.52,overcast clouds,28.0667,95.3333,Siang Guest House
134,Hay River,CA,67.98,few clouds,60.8156,-115.7999,Ptarmigan Inn
135,Caravelas,BR,70.29,few clouds,-17.7125,-39.2481,Pousada dos Navegantes
136,Vanderhoof,CA,64.78,overcast clouds,54.0166,-124.0198,Vanderhoof Inn
137,Nikolskoye,RU,62.8,broken clouds,59.7035,30.7861,Tourist House - Sablino
139,Xinzhou,CN,70.81,scattered clouds,38.4092,112.7333,Shell Hotel - Xinzhou
141,Cayenne,GF,84.09,few clouds,4.9333,-52.3333,Hôtel Le Dronmi
142,Kozmodemyansk,RU,61.07,overcast clouds,56.3367,46.5711,"Lada, Gostinitsa"
143,Ponta Delgada,PT,74.12,broken clouds,37.7333,-25.6667,Vila Nova Hotel
146,East London,ZA,65.53,overcast clouds,-33.0153,27.9116,Tu Casa
148,Imbituba,BR,64.09,clear sky,-28.24,-48.6703,Praia Hotel Imbituba
150,Ugoofaaru,MV,81.07,overcast clouds,5.6667,73.0,Ungoofaaru Inn
156,Mantua,IT,79.84,clear sky,45.1667,10.7833,Hotel la Favorita
157,Houma,US,86.0,clear sky,29.5958,-90.7195,Courtyard by Marriott Houma
158,Isangel,VU,80.71,broken clouds,-19.55,169.2667,Tanna Lodge
159,Iracoubo,GF,80.55,overcast clouds,5.4802,-53.2011,Le Gîte d’Iracoubo
160,Nhulunbuy,AU,77.61,overcast clouds,-12.2333,136.7667,East Arnhem Real Estate
161,Touros,BR,77.05,scattered clouds,-5.1989,-35.4608,INN NEW HORIZON
162,Sibu,MY,75.51,scattered clouds,2.3,111.8167,RH HOTEL (4 Star)
164,Saint-Augustin,CA,68.86,broken clouds,51.226,-58.6502,
165,Marienburg,PL,63.88,overcast clouds,54.0359,19.0266,Hotel Centrum Malbork
166,Belmonte,BR,72.21,clear sky,-15.8631,-38.8828,Pousada Monte Carmelo O Pão
167,Outram,MY,77.18,broken clouds,1.2829,103.8379,Grand Copthorne Waterfront
168,Port Keats,AU,69.87,few clouds,-14.25,129.55,TDC Village (Hundred Man Camp)
171,Japura,ID,73.26,overcast clouds,-0.3167,102.35,Rumah mbah Jamah
173,Cervo,ES,66.96,overcast clouds,43.6702,-7.4101,Hotel Spa Galatea
174,Villarrica,PY,77.25,clear sky,-25.75,-56.4333,Mansión Reljuv Tours SA
176,Petrodvorets,RU,62.89,broken clouds,59.885,29.8958,New Peterhof Hotel
180,Hasaki,JP,81.28,broken clouds,35.7333,140.8333,Inubosaki Kanko Hotel
181,Raga,SS,69.04,scattered clouds,8.4596,25.678,
182,Maple Creek,CA,77.41,clear sky,49.9168,-109.4848,Willowbend Campground & Cabins
183,Sembe,CG,75.29,broken clouds,1.6481,14.5806,
184,Vila Franca Do Campo,PT,73.81,broken clouds,37.7167,-25.4333,Pestana Bahia Praia
185,Katsuura,JP,80.67,overcast clouds,35.1333,140.3,Katsuura Hotel Mikazuki
186,Vanimo,PG,77.59,overcast clouds,-2.6741,141.3028,Vahmoneh Lodge Vanimo
188,Qandala,SO,89.82,clear sky,11.472,49.8728,
189,Sao Filipe,CV,78.33,light rain,14.8961,-24.4956,Hotel Xaguate
190,Cururupu,BR,77.99,few clouds,-1.8283,-44.8683,POUSADA TRAVÉS'CIA
191,Samarai,PG,81.09,scattered clouds,-10.6167,150.6667,Nuli Sapi
192,Fare,PF,78.4,clear sky,-16.7,-151.0167,Maitai Lapita Village Huahine
194,Faya,SA,62.71,overcast clouds,18.3851,42.4509,املاك خالد الشعشوع
195,Avarua,CK,77.05,broken clouds,-21.2078,-159.775,Paradise Inn
198,Bengkulu,ID,74.25,moderate rain,-3.8004,102.2655,Grage Hotel Bengkulu
200,Natal,BR,77.22,broken clouds,-5.795,-35.2094,Villa Park Hotel | Natal
201,Rantauprapat,ID,72.66,overcast clouds,2.1,99.8333,Permata Land Hotel & Resort
202,Zyryanka,RU,62.69,light rain,65.75,150.85,
203,Guerrero Negro,MX,80.96,overcast clouds,27.9769,-114.0611,"Casa Laguna, Bed & Breakfast"
204,Quang Ngai,VN,76.66,light rain,15.1167,108.8,Central Hotel
205,Manado,ID,74.17,few clouds,1.487,124.8455,Aryaduta Hotel
206,Mukilteo,US,83.61,scattered clouds,47.9445,-122.3046,Silver Cloud Inn - Mukilteo Waterfront
207,Kandrian,PG,79.3,broken clouds,-6.2167,149.55,Kandrian Station
208,Kodiak,US,65.71,few clouds,57.79,-152.4072,Best Western Kodiak Inn
209,Chernyy Yar,RU,80.04,scattered clouds,48.0624,46.1091,Stanitsa Chernoyarskaya
210,Hermon,US,82.35,scattered clouds,44.8101,-68.9134,Pumpkin Patch RV Resort
211,Akyab,MM,81.68,overcast clouds,20.15,92.9,Hotel Memory
214,Jiaohe,CN,70.83,few clouds,43.7286,127.3447,Home Inn Fashion Hotel
215,Quibor,VE,76.17,overcast clouds,9.9287,-69.6201,Hostería Valle de Quibor
216,Mandalgovi,MN,70.14,clear sky,45.7625,106.2708,В.Ганбат
217,Bethel,US,89.69,clear sky,41.3712,-73.414,Courtyard by Marriott Danbury
218,Barreirinhas,BR,78.75,scattered clouds,-2.7469,-42.8264,Gran Lençóis Flat Residence
219,Dasoguz,TM,80.55,clear sky,41.8363,59.9666,Hotel Erik
220,Zeya,RU,62.6,broken clouds,53.75,127.2667,Kapital Inn
221,Kampli,IN,78.19,overcast clouds,15.4,76.6167,Government Hostel Kampli
222,Petapa,GT,81.25,broken clouds,14.5028,-90.5517,La Visión del Espíritu Santo
224,Mumford,GH,72.46,few clouds,5.2618,-0.759,Spanish Villa
225,Nizhniy Kuranakh,RU,62.46,overcast clouds,58.8353,125.4869,Park Pobedy
226,Leticia,CO,84.25,broken clouds,-4.2153,-69.9406,Hotel Amazon Bed and Breakfast / Hotel Amazon B&B
227,Merauke,ID,75.99,broken clouds,-8.4667,140.3333,
231,Lorengau,PG,81.95,overcast clouds,-2.0226,147.2712,Lorengau Harbourside Hotel
233,Yarada,IN,82.72,mist,17.65,83.2667,Yarada Jungle Beach Resorts
235,Kapoeta,SS,70.09,broken clouds,4.7717,33.5903,Eastgate Hotel
241,Komsomolskoye,RU,62.56,broken clouds,55.2567,47.5461,"Gostinyy Dvor ""Oazis"""
242,Vao,NC,73.17,broken clouds,-22.6667,167.4833,Hotel Kou-Bugny
243,Butterworth,MY,79.0,light rain,5.3991,100.3638,Cititel Penang
244,Porto Novo,BJ,75.02,overcast clouds,6.4965,2.6036,Tour Eiffel Hotel Benin
247,Carutapera,BR,78.96,moderate rain,-1.195,-46.02,Lidera
249,Angoche,MZ,72.28,few clouds,-16.2325,39.9086,Guest House HESADA
250,High Level,CA,68.11,broken clouds,58.5169,-117.136,Days Inn by Wyndham High Level
253,Tenenkou,ML,87.94,overcast clouds,14.4572,-4.9169,
254,Lata,PT,64.31,clear sky,40.1629,-8.3327,Casa Maquia
255,Tarauaca,BR,83.14,overcast clouds,-8.1614,-70.7656,Flat Temporada
256,Labuan,MY,77.36,few clouds,5.2767,115.2417,Tiara Labuan Hotel
257,Montrose,US,81.81,scattered clouds,38.4166,-108.2673,
258,Cabras,IT,76.19,clear sky,39.93,8.5314,Hotel Villa Canu
260,Savinka,RU,72.97,clear sky,50.0785,47.0994,
261,Bairiki,KI,84.2,scattered clouds,1.3292,172.9752,Tarawa Boutique Hotel
263,Kushmurun,KZ,64.18,scattered clouds,52.4503,64.6311,Gostinitsa Pri Depo
264,Sherlovaya Gora,RU,63.66,overcast clouds,50.5667,116.25,
266,Richards Bay,ZA,64.35,clear sky,-28.783,32.0377,BON Hotel Waterfront Richards Bay
267,Bathsheba,BB,84.81,scattered clouds,13.2167,-59.5167,Atlantis Hotel
268,Luena,AO,62.96,few clouds,-11.7833,19.9167,Hotel Kandamba
270,Januaria,BR,78.76,clear sky,-15.4833,-44.3667,Hotel Paraguassu
271,Pisco,PE,64.45,clear sky,-13.7,-76.2167,Hotel San Isidro Oficial
272,Carnarvon,AU,66.45,overcast clouds,-24.8667,113.6333,Hospitality Carnarvon
273,Menongue,AO,63.68,overcast clouds,-14.6585,17.691,Ritz Lauca
275,Najran,SA,77.65,broken clouds,17.4924,44.1277,محمد هادي ال فطيح
277,Santa Maria Del Tule,MX,81.95,overcast clouds,17.0333,-96.6167,Rancho Pitaya B & B
278,Grand Gaube,MU,68.4,clear sky,-20.0064,57.6608,Veranda Paul et Virginie Hotel & Spa
279,Asau,RO,61.72,clear sky,46.4333,26.4,Casa Mika Ciobanus
281,Ailigandi,PA,80.91,overcast clouds,9.2333,-78.0167,Akwa Reef Lodge
283,Namwala,ZM,61.79,clear sky,-15.7504,26.4384,Corner Point Lodge
284,Bandiagara,ML,86.72,overcast clouds,14.3501,-3.6104,Hotel de la Falaise
286,Turbat,PK,84.15,broken clouds,26.0023,63.044,Mubashar Quarters
289,Oksovskiy,RU,62.64,overcast clouds,62.6062,39.8984,Hotel Severoonezhsk
292,Neiafu,TO,77.68,scattered clouds,-18.65,-173.9833,Mystic Sands Beachfront Accommodation
294,Dingle,PH,75.9,overcast clouds,10.9995,122.6711,SEGAYA PROPERTY
298,Sao Miguel Do Araguaia,BR,86.41,clear sky,-13.275,-50.1628,Hotel Executivo Palace
299,Srandakan,ID,74.17,overcast clouds,-7.9386,110.2506,Puri Brata
300,Talaya,RU,64.29,overcast clouds,61.3833,152.75,
302,Oktyabrskoye,RU,68.14,clear sky,43.0645,44.7417,Prolesok Mini-hotel
303,Slavyanka,RU,71.94,broken clouds,42.8633,131.3847,"Gostevoy Dom, ""Nattalika"""
306,Aleksandrovka,UA,66.29,scattered clouds,46.8383,32.7612,
307,Ciudad Bolivar,VE,81.36,overcast clouds,8.1222,-63.5497,Hotel Edi
311,Aksarayskiy,RU,78.04,few clouds,46.7924,48.0119,
313,Khairpur,PK,87.8,clear sky,27.5295,68.7617,Mehran University SZAB Campus Hostel 2
314,Bandarbeyla,SO,75.61,scattered clouds,9.4942,50.8122,JABIR HOTEL
316,Itatiaia,BR,64.98,clear sky,-22.4961,-44.5633,La Ponsa
318,Yendi,GH,72.03,overcast clouds,9.4427,-0.0099,Eyarro Lodge
320,Yumen,CN,69.67,few clouds,40.2833,97.2,
321,Dekar,BW,61.61,broken clouds,-21.5333,21.9333,
322,Dauphin,CA,78.94,few clouds,51.1494,-100.0502,Canway Inn & Suites
323,Sikasso,ML,72.7,light rain,10.9167,-7.0,
324,Morondava,MG,69.91,clear sky,-20.2833,44.2833,La Case Bambou
327,Marawi,PH,67.75,broken clouds,7.9986,124.2928,Derogongan Residence
330,Vredendal,ZA,60.04,overcast clouds,-31.6683,18.5012,Tharrakamma Guest House
331,Manadhoo,MV,81.1,overcast clouds,5.7667,73.3833,Bon Abri maldives
338,Ust-Tsilma,RU,60.85,broken clouds,65.441,52.1498,U Praskov'i
339,Teknaf,BD,79.97,light rain,20.8624,92.3058,Forestry Guesthouse
341,Uthal,PK,82.45,broken clouds,25.8072,66.6219,Al-Mustafa Hotel
342,Finschhafen,PG,80.78,scattered clouds,-6.6024,147.8681,Cossam Guest House
344,Cotusca,RO,64.58,clear sky,48.1333,26.85,
345,Taksimo,RU,65.03,light rain,56.3444,114.8794,"Gostinitsa ""Domashniy Ochag"""
346,Vale,GE,63.79,few clouds,41.6156,42.8722,Arali Guest House
347,Port Blair,IN,78.58,overcast clouds,11.6667,92.75,"Welcomhotel By ITC Hotels, Bay Island, Port Blair"
349,Roebourne,AU,64.44,clear sky,-20.7833,117.1333,Latitude20 Roebourne Village
351,Victoria,HK,85.32,overcast clouds,22.2855,114.1577,Mini Central
352,Larsnes,NO,60.62,overcast clouds,62.2028,5.5773,Liset Feriesenter AS
354,Annau,TM,80.1,broken clouds,37.8876,58.516,"Гостиница ""Уссат инженер"""
355,Kurchum,KZ,64.36,clear sky,48.5722,83.6542,"""Kneda"" Hotel"
356,Alofi,NU,78.69,scattered clouds,-19.0595,-169.9187,Taloa Heights
358,Suntar,RU,64.6,broken clouds,62.1444,117.6319,Гостевая квартира
359,Port Hedland,AU,66.25,overcast clouds,-20.3167,118.5667,The Esplanade Hotel
360,Marsh Harbour,BS,83.28,clear sky,26.5412,-77.0636,Abaco Beach Resort
361,Mackay,AU,61.68,clear sky,-21.15,149.2,International Lodge Motel
362,Vangaindrano,MG,64.54,overcast clouds,-23.35,47.6,Hotel Fanilo
364,Salalah,OM,77.09,light intensity drizzle,17.0151,54.0924,"HAMDAN PLAZA HOTEL SALALAH, an HTG Hotel"
365,Vila Velha,BR,75.15,few clouds,-20.3297,-40.2925,Hotel Vitória Palace
366,Aktau,KZ,77.58,clear sky,43.65,51.2,Silk Way Hotel
368,Lubao,PH,78.51,overcast clouds,14.9167,120.55,Hacienda Gracia
369,Tabas,IR,86.65,clear sky,33.5959,56.9244,شرکت معماری مهراز شایگان آراد
370,Mackenzie,CA,68.22,broken clouds,55.2999,-123.1698,Hilton Shop
371,Tarija,BO,71.51,clear sky,-21.5355,-64.7296,Hostal Granny
373,Cabedelo,BR,75.87,clear sky,-6.9811,-34.8339,Pousada Camboinha
374,Vilhena,BR,86.22,clear sky,-12.7406,-60.1458,Hotel Mirage
376,Bayir,TR,70.32,clear sky,37.2687,28.2167,Hotel Babadag
377,Luyang,CN,77.9,broken clouds,27.6239,110.0989,Zhijia Fashion Hotel
378,Kamaishi,JP,73.49,moderate rain,39.2667,141.8833,Hotel Route Inn Kamaishi
379,Umkomaas,ZA,61.68,clear sky,-30.2067,30.7978,The Norwegian Lodge
380,Fiumicino,IT,84.63,clear sky,41.7675,12.2291,Hotel Al Porticciolo
381,Labuhan,ID,75.52,scattered clouds,-6.8844,112.2051,DoubleFAG
382,Ulaangom,MN,62.29,few clouds,49.9811,92.0667,Achit Nuur Hotel & Restaurant
383,Lasa,IT,68.88,broken clouds,46.6166,10.7002,Pension Feldgärtenhof
384,Sept-Iles,CA,69.06,overcast clouds,50.2001,-66.3821,Comfort Inn
385,Maumere,ID,74.61,scattered clouds,-8.6199,122.2111,Sylvia Hotel
387,Voh,NC,75.04,overcast clouds,-20.9667,164.7,Le gîte du Koniambo
388,Biak,ID,74.44,overcast clouds,-0.9131,122.8766,Penginapan Kim
390,Karratha,AU,63.52,clear sky,-20.7377,116.8463,ibis Styles Karratha
394,Cotonou,BJ,75.18,scattered clouds,6.3654,2.4183,Novotel Cotonou Orisha
395,Wanning,CN,80.6,overcast clouds,18.8003,110.3967,Paradise Hotel
396,Campbell River,CA,73.45,scattered clouds,50.0163,-125.2446,Anchor Inn & Suites
397,Hithadhoo,MV,80.08,broken clouds,-0.6,73.0833,Scoop Guest House
399,Mantang,PH,78.46,overcast clouds,11.87,125.4283,Kintoy's Clubhouse
401,Traverse City,US,84.83,few clouds,44.7631,-85.6206,Bayshore Resort
402,Elko,US,88.05,scattered clouds,41.0002,-115.5012,
403,Lobito,AO,66.74,overcast clouds,-12.3481,13.5456,Casa Rosa Hotel Residence
404,Iluppur,IN,78.15,light rain,10.5135,78.6236,Inamkulathur latheef biriyani
405,Ziarat,PK,62.47,clear sky,30.3823,67.7282,Pakiza Guest House ziarat
407,San Cristobal,VE,77.18,broken clouds,7.7669,-72.225,Pirineos
409,Palestrina,IT,79.48,scattered clouds,41.8355,12.889,Altavista
410,Ouango,CF,72.39,overcast clouds,4.3133,22.5552,
411,Jalu,LY,83.07,clear sky,29.0331,21.5482,صاحبة الفخامة
412,Harda,IN,77.72,heavy intensity rain,22.3333,77.1,OYO 67581 Samaroh Parisar
413,Poum,NC,74.97,broken clouds,-20.2333,164.0167,
414,Keti Bandar,PK,81.75,overcast clouds,24.1447,67.4497,Haji laloo memon house
415,Camacha,PT,67.42,broken clouds,33.0833,-16.3333,Hotel Porto Santo & Spa
416,Puerto Carreno,CO,87.78,scattered clouds,6.189,-67.4859,Casa Hotel Victoria
419,Kieta,PG,82.49,light rain,-6.2167,155.6333,Uruna Bay Retreat
421,Birjand,IR,73.87,clear sky,32.8663,59.2211,Birjand Tourist Hotel
422,Luwuk,ID,75.47,overcast clouds,-0.9516,122.7875,Hotel Santika Luwuk
423,Hubli,IN,72.86,overcast clouds,15.35,75.1667,Hotel Swathi
424,Limoges,FR,79.36,clear sky,45.75,1.3333,La Gratade
425,Fort Nelson,CA,71.19,broken clouds,58.8053,-122.7002,The Fort Nelson Hotel
427,Ilheus,BR,76.82,scattered clouds,-14.7889,-39.0494,Barravento Hotel
434,Buritama,BR,82.51,few clouds,-21.0661,-50.1472,Rancho Do Presidente - Buritama - SP
435,Marang,MY,76.93,overcast clouds,5.2056,103.2059,DBarakah Homestay
437,Shahreza,IR,77.05,scattered clouds,32.0339,51.8794,خوابگاه
439,Parana,AR,64.45,overcast clouds,-31.732,-60.5238,Howard Johnson by Wyndham Plaza Hotel Mayorazgo
440,Amahai,ID,75.97,overcast clouds,-3.3333,128.9167,HOTEL ISABELA
441,Kutum,SD,68.47,moderate rain,14.2,24.6667,Dibbo areaمنطقة دبو
444,Joshimath,IN,70.3,overcast clouds,30.5667,79.5667,Shivalik Camps & Resort
445,Maceio,BR,74.64,moderate rain,-9.6658,-35.7353,Hotel Ponta Verde Maceió
447,Bonavista,CA,67.23,overcast clouds,48.6499,-53.1147,Sweet Sharons bnb
449,Temir,KZ,70.84,scattered clouds,49.1414,57.13,
450,Hamilton,US,89.22,clear sky,39.1834,-84.5333,Six Acres Bed & Breakfast
451,Spodnja Idrija,SI,74.97,clear sky,46.0319,14.0272,Hotel Jožef
452,Poopo,BO,61.57,clear sky,-18.3667,-66.9667,turistico HOTEL
453,Jutai,BR,76.53,light rain,-5.1833,-68.9,
454,Tukrah,LY,79.38,clear sky,32.5341,20.5791,Lagrota restaurant
456,Puerto Del Rosario,ES,80.35,few clouds,28.5004,-13.8627,Hotel JM Puerto del Rosario
457,Bereznik,RU,63.66,overcast clouds,62.8551,42.7072,coastal Hotel
458,Palmer,US,88.5,broken clouds,42.1584,-72.3287,Wedgewood Motel
459,Itarema,BR,78.55,scattered clouds,-2.9248,-39.9167,"Sea Lounge! Bar, Club & Restaurant"
460,Wahiawa,US,80.87,broken clouds,21.5028,-158.0236,The Inn At Schofield
461,Beaverlodge,CA,65.55,broken clouds,55.2166,-119.4361,Side Trax Inn
462,Iquique,CL,60.84,scattered clouds,-20.2208,-70.1431,Backpacker`s Hostel Iquique
463,Nishihara,JP,81.68,few clouds,26.1842,127.7558,Minshuku Agaihama
464,Ternate,ID,78.76,overcast clouds,0.8,127.4,Sahid Bela Ternate Hotel
465,Orocue,CO,74.57,overcast clouds,4.7912,-71.3354,Hotel Brisas de San Miguel
469,Ferrol,ES,69.71,clear sky,43.4832,-8.2369,Hotel Spa Sercotel Odeón
470,Bemidji,US,80.91,overcast clouds,47.4736,-94.8803,Hampton Inn & Suites Bemidji
471,Gombe,NG,69.48,light rain,10.2897,11.1673,Custodian Hotel Gombe
474,Dubasari,MD,68.79,few clouds,47.2631,29.1608,Днестровский Сад
475,Tambura,SS,67.1,scattered clouds,5.6,27.4667,Rikito Lodge
477,Kouroussa,GN,70.41,light rain,10.65,-9.8833,Hotel Tando Plus
478,Goure,NE,80.85,overcast clouds,13.9835,10.2704,
479,Nouadhibou,MR,75.18,few clouds,20.931,-17.0347,El Medina
481,Sao Jose Da Coroa Grande,BR,75.09,broken clouds,-8.8978,-35.1478,Crôa Mares Hotel
483,Bouloupari,NC,73.31,overcast clouds,-21.8667,166.05,Oua-Ya Lodge
484,Marsa Matruh,EG,80.8,clear sky,31.3525,27.2453,Beau Site
485,Daro,GN,66.2,scattered clouds,8.5185,-9.569,
486,Huilong,CN,82.92,clear sky,31.8111,121.655,Hilton Garden Inn Qidong
489,Villefranche-Sur-Saone,FR,77.77,few clouds,45.9833,4.7167,Hôtel Restaurant Campanile Villefranche-sur-Saône
491,Tulsipur,NP,73.85,overcast clouds,28.131,82.2973,Ekanta Hotel Pvt. Ltd
492,Soller,ES,85.62,clear sky,39.7662,2.7152,Hotel Marina & Wellness Spa
493,Mali,GN,60.96,moderate rain,12.079,-12.2982,Hotel La Dame de Mali
497,Ucluelet,CA,61.09,overcast clouds,48.9329,-125.5528,Black Rock Oceanfront Resort
499,Sobolevo,RU,61.93,overcast clouds,54.4299,31.8996,
501,Sao Cristovao,BR,78.71,broken clouds,-11.0147,-37.2064,Hotel deimar
504,Maragogi,BR,74.84,broken clouds,-9.0122,-35.2225,Salinas do Maragogi All Inclusive Resort
506,Beaufort,MY,74.39,overcast clouds,5.3473,115.7455,The Gem Hotel Beaufort
507,Bonthe,SL,75.33,overcast clouds,7.5264,-12.505,Bonthe Holiday Village
508,Marand,IR,77.56,broken clouds,38.4329,45.7749,کوچه صفا
509,Taguatinga,BR,80.96,scattered clouds,-12.3857,-46.5711,
511,Gomel,BY,65.82,overcast clouds,52.4345,30.9754,Turyst
512,Corn Island,NI,81.07,moderate rain,12.1694,-83.0418,Big Fish Guest House
513,Eyl,SO,76.17,clear sky,7.9803,49.8164,Amiin Hotel
514,Harper,LR,75.49,overcast clouds,4.375,-7.7169,Screensaver
515,Waddan,LY,82.15,clear sky,29.1614,16.139,محل الشريف محمد العايب
516,Ambilobe,MG,61.88,clear sky,-13.2,49.05,Hôtel & Restaurant DIANA Ambilobe
518,Pauini,BR,84.13,overcast clouds,-7.7136,-66.9764,Casa do Kiwliks
519,Bautzen,DE,71.38,overcast clouds,51.1833,14.4333,Hotel Dom-Eck
520,Bacungan,PH,78.85,few clouds,9.9106,118.7022,Sumayang Property
521,Axim,GH,73.27,scattered clouds,4.8699,-2.2405,Axim Beach Resort And Spa
522,Tauramena,CO,72.84,overcast clouds,5.0183,-72.7492,"Hotel Palmarito - Hotel en Tauramena, Casanare"
523,Masuguru,TZ,70.72,broken clouds,-11.3667,38.4167,
524,Voi,KE,66.54,clear sky,-3.3945,38.563,Voi Wildlife Lodge
526,Port Said,EG,82.38,clear sky,31.2565,32.2841,Aracan Hotel
527,Ustyuzhna,RU,62.24,overcast clouds,58.8394,36.4321,Зеленая Жемчужина
529,Nabire,ID,75.42,overcast clouds,-3.3667,135.4833,Hotel Nusantara I
530,Noumea,NC,73.99,broken clouds,-22.2763,166.4572,Hôtel Le Lagon
532,Green River,US,78.19,overcast clouds,41.5286,-109.4662,Hampton Inn & Suites Green River
533,Benghazi,LY,80.6,clear sky,32.1167,20.0667,Tibesti Hotel
535,Salar,ES,82.89,clear sky,37.1499,-4.0191,Cortijo de Tajar Hotel
536,Tessalit,ML,81.32,overcast clouds,20.1986,1.0114,
537,Ilo,PE,63.46,broken clouds,-17.6394,-71.3375,Torreblanca Hotel
539,College,US,66.18,broken clouds,64.8569,-147.8028,Pike's Waterfront Lodge
540,Rizhao,CN,80.55,clear sky,35.4275,119.4553,Novotel Rizhao Suning
541,Camana,PE,61.11,clear sky,-16.6228,-72.7111,Hostal Morales
543,Soyo,AO,68.9,few clouds,-6.1349,12.3689,Hospedaria ndozi'ame
545,Omboue,GA,72.48,overcast clouds,-1.5746,9.2618,Hotel Olako
546,San Quintin,MX,77.02,broken clouds,30.4833,-115.95,Don Eddie's / Hotel - Restaurant
547,Tshikapa,CD,84.13,overcast clouds,-6.4167,20.8,Tatem beach
548,Maun,BW,67.96,clear sky,-19.9833,23.4167,Enviro Villa
549,Pochutla,MX,88.83,scattered clouds,15.7432,-96.4661,Hotel Posada San Jose
550,Novikovo,RU,66.16,overcast clouds,51.1537,37.8879,
551,Saint Stephen,GB,66.47,broken clouds,50.3333,-4.9,4 stepaside corner
552,Lagunas,PE,81.21,overcast clouds,-5.2269,-75.6753,Hospedaje Eco
553,Fez,MA,89.85,clear sky,34.0372,-4.9998,Hotel Mounia Fès
554,Kalabo,ZM,61.68,clear sky,-14.97,22.6814,Sikakubete Guest House Kalabo Town Council
556,Alekseyevsk,RU,64.08,overcast clouds,57.8406,108.3492,
557,Urambo,TZ,73.92,overcast clouds,-5.0667,32.05,Fair Lodge
558,Bangui,CF,70.86,light rain,4.3612,18.555,SAM HOTEL
559,Dobrinka,RU,64.49,overcast clouds,52.1653,40.4731,Ковчег
560,Vadso,NO,61.68,clear sky,70.0744,29.7487,Scandic Vadsø
562,Taos,US,86.99,clear sky,36.4072,-105.5731,El Monte Sagrado
563,Port Moresby,PG,74.62,haze,-9.4431,147.1797,Lamana Hotel (Port Moresby)
564,Pallisa,UG,62.24,scattered clouds,1.145,33.7094,YNM Hotel
565,Hegra,NO,60.71,clear sky,63.4644,11.114,Øfsti Between
567,Shar,KZ,64.22,clear sky,49.5886,81.0453,
568,Tooele,US,84.09,clear sky,40.5308,-112.2983,"Holiday Inn Express & Suites Tooele, an IHG Hotel"
569,Manzhouli,CN,69.21,broken clouds,49.6,117.4333,Angala International Youth Hostel
570,Takoradi,GH,72.72,clear sky,4.8845,-1.7554,Raybow International Hotel
573,Karacabey,TR,73.78,clear sky,40.2152,28.4038,Uludağ Üniversitesi Sadık Yılmaz Öğrenci Yurdu
576,Bukachacha,RU,62.49,light rain,52.9833,116.9167,
577,Saint-Francois,FR,71.04,clear sky,46.4154,3.9054,Manoir Du Bonheur
578,Rabaul,PG,80.83,scattered clouds,-4.1967,152.1721,Rabaul Hotel
579,Auki,SB,82.24,few clouds,-8.7676,160.7034,Auki Motel
580,Roald,NO,60.94,light rain,62.5833,6.1333,Flem Cabins
581,Machiques,VE,85.42,broken clouds,10.0644,-72.545,hotel el markes
582,Vostok,RU,71.78,broken clouds,46.4856,135.8833,
584,Chalan,CO,79.65,overcast clouds,9.5477,-75.3113,linda melisa
586,Hambantota,LK,77.34,broken clouds,6.1241,81.1185,Bungalow 63
589,Pacific Grove,US,84.54,clear sky,36.6177,-121.9166,Lovers Point Inn
590,Cruzeiro Do Oeste,BR,73.38,clear sky,-23.785,-53.0733,Hotel Malybu
591,Dabrowa Tarnowska,PL,66.43,overcast clouds,50.1746,20.9863,Hotel Cristal Park Dąbrowa Tarnowska
592,La Crosse,US,89.78,broken clouds,43.8014,-91.2396,Holiday Inn & Suites La Crosse - Downtown
593,Tura,IN,74.44,overcast clouds,25.5198,90.2201,Hotel RIKMAN Continental
595,Liverpool,GB,70.29,broken clouds,53.4106,-2.9779,Premier Inn Liverpool City Centre (Moorfields) hotel
596,Dolzhanskaya,RU,76.44,clear sky,46.6311,37.8039,"Park-hotel ""Ryba-Kit"""
598,Santa Rosalia,MX,87.49,broken clouds,27.3167,-112.2833,Hotel Las Casitas Santa Rosalia
600,Boueni,YT,73.38,light rain,-12.9025,45.0761,The feet in water
601,Fairbanks,US,66.2,light intensity shower rain,64.8378,-147.7164,Westmark Fairbanks Hotel & Conference Center
602,Taicheng,CN,68.07,few clouds,38.731,113.228,五台山康旅酒店
603,Ocos,GT,89.78,clear sky,14.5094,-92.1933,Auto Hotel El Soñador
605,Kaniama,CD,72.39,broken clouds,-7.5667,24.1833,
606,Boyolangu,ID,72.54,overcast clouds,-8.1181,111.8935,Yos ega cv
607,Kamenka,RU,67.05,broken clouds,51.3223,42.7678,
608,Bolgar,RU,64.67,scattered clouds,54.95,49.0667,Dakar
609,Emborion,GR,68.36,clear sky,40.4833,21.55,Villa Kastanodasos
610,Malanje,AO,65.73,few clouds,-9.5402,16.341,Hotel Ginga
611,Arisvi,GR,74.82,clear sky,41.0667,25.5833,Basırlıköy Gençlik Odası
613,Cananeia,BR,65.07,clear sky,-25.0147,-47.9267,Pousada Ancoradouro
615,Magdagachi,RU,62.49,few clouds,53.45,125.8,Motopolyana Magdagachi
616,Pitimbu,BR,75.79,few clouds,-7.4706,-34.8086,Reserva do Abiaí
617,Roma,US,81.95,scattered clouds,43.2128,-75.4557,Wingate By Wyndham Rome
618,Chikmagalur,IN,67.35,heavy intensity rain,13.3167,75.7833,Gateway Chikmagalur - IHCL SeleQtions
619,Manokwari,ID,78.76,overcast clouds,-0.8667,134.0833,Swiss Belhotel Manokwari
620,Cockburn Town,TC,85.96,scattered clouds,21.4612,-71.1419,Osprey Beach Hotel
621,Velsk,RU,60.15,overcast clouds,61.0701,42.0983,Zhemchuzhina Severa
622,Navirai,BR,75.97,few clouds,-23.065,-54.1906,Dubai Hotel - Também sua casa!
623,Khandbari,NP,71.64,overcast clouds,27.3747,87.2039,Sainik Hotel And Lodge
624,Padre Paraiso,BR,65.08,clear sky,-17.0742,-41.4844,Pousada Três Irmãos
625,Poretskoye,RU,60.85,overcast clouds,55.1974,46.3291,
627,Olga,RU,70.75,overcast clouds,43.7444,135.2892,Gostinitsa Rosmorport.
628,Atambua,ID,66.76,scattered clouds,-9.1061,124.8925,Kost Alfa Flat
629,Nynashamn,SE,63.1,light rain,58.9034,17.9479,Nynäs Havsbad
633,Lukovetskiy,RU,64.29,overcast clouds,64.2956,41.9211,Provintsiya
635,Chapleau,CA,73.49,few clouds,47.8405,-83.4034,Nemegosenda Lake Lodge
636,Kloulklubed,PW,75.7,overcast clouds,7.0419,134.2556,Storyboard Beach Resort
639,Bac Lieu,VN,78.82,overcast clouds,9.285,105.7244,Khách sạn Sài Gòn Bạc Liêu
640,Srednekolymsk,RU,60.58,light rain,67.45,153.6833,
641,Constantine,DZ,72.81,few clouds,36.365,6.6147,Grand Hotel Cirta
642,Kasongo-Lunda,CD,79.54,broken clouds,-6.4667,16.8167,
643,Malakal,SS,70.11,overcast clouds,9.5334,31.6605,Nile Palace Hotel
644,San Policarpo,PH,80.38,overcast clouds,12.1791,125.5072,Agapita M. Nicart
645,Callaway,US,80.53,broken clouds,30.153,-85.5699,"Holiday Inn Express & Suites Panama City-Tyndall, an IHG Hotel"
646,Saint-Leu,RE,66.31,clear sky,-21.15,55.2833,La Caz Oceane
647,Lagoa,PT,74.28,clear sky,39.05,-27.9833,Casa Das Faias
648,Parral,MX,86.47,broken clouds,26.9333,-105.6667,HOTEL LOS ARCOS PARRAL
649,Quelimane,MZ,71.55,scattered clouds,-17.8786,36.8883,Hotel Flamingo
650,Sinop,TR,62.73,few clouds,41.7711,34.8709,
652,Shellbrook,CA,61.83,overcast clouds,53.2168,-106.4011,Shellbrook Hotel
654,Yen Bai,VN,76.23,broken clouds,21.7,104.8667,AK MOTEL
655,Isla Mujeres,MX,89.17,broken clouds,21.2311,-86.731,Hotel La Joya Isla Mujeres
656,Alice Springs,AU,69.35,overcast clouds,-23.7,133.8833,Desert Palms Alice Springs
657,Quatre Cocos,MU,68.11,clear sky,-20.2078,57.7625,Sunrise Attitude Hotel
659,Salinopolis,BR,80.51,few clouds,-0.6136,-47.3561,Salinas Park Resort Maçarico AP101
660,Awjilah,LY,81.0,clear sky,29.1081,21.2869,المنزل
661,Oarai,JP,82.35,overcast clouds,36.3167,140.6,Oarai Hotel
663,Acarau,BR,78.71,scattered clouds,-2.8856,-40.12,castelo pizzaria
664,Neryungri,RU,62.19,scattered clouds,56.6709,124.6491,Pyat' Zvozd
666,Gamba,GA,69.91,broken clouds,-2.65,10.0,
670,Alta Floresta,BR,83.57,overcast clouds,-9.8756,-56.0861,Floresta Amazonica Hotel
672,Yeppoon,AU,62.38,few clouds,-23.1333,150.7333,Villa Mar Colina
673,Tete,MZ,66.29,broken clouds,-16.1564,33.5867,Zambeze Paraíso Misterioso
